Latitude;Longitude;Time;Date;Number of Sats;GPS Speed (Kn);GPS True Heading;GPS Magnetic Variation;HDOP;C Magnetic Heading;C True Heading;Pitch Angle;Roll Angle;C Inside Temp (c);DFS Depth (ft);DTB Height (ft);Total Water Column (ft);Batt Percent;Power Watts;Watt-Hours;Batt Volts;Batt Ampers;Batt State;Time to Empty;Current Step;Dist To Next (m);Next Speed (kn);Vehicle Speed (kn);Motor Speed CMD;Next Heading;Next Long;Next Lat;Next Depth (ft);Depth Goal (ft);Vehicle State;Error State;Fin Pitch R;Fin Pitch L;Pitch Goal;Fin Yaw T;Fin Yaw B;Yaw Goal;Fin Roll;Temp C;SpCond uS/cm;Sal ppt;BGA-PC RFU;Chl ug/L;Chl RFU;Turbid+ NTU;
23.0286083333333;120.337955;02:56:15.88;2/17/2011;9;0.1;50.24;-3.30880114687204;0.9;0.2;356.891198853128;5.5;-1.1;28.8;.02;9.66;9.67;89;13;519.6;16;-0.8;D;2623.2;0;47.011;0.5;2;128;33.71643;120.33821;23.02896;0;0;1;N;90;90;15;250;250;33.71643;0;23.44;455;0.22;0.7;6.6;1.6;2.4;
23.028609270855;120.337956613426;02:56:16.89;2/17/2011;9;0.12;53.14;-3.30880114687204;0.9;0.4;357.091198853128;5.4;-1.1;28.8;.05;9.56;9.60;89;12;519.6;16;-0.7;D;2756.8;0;46.833;0.5;0.5;128;33.6192;120.33821;23.02896;0;0;1;N;90;90;15;250;250;33.71643;0;23.44;456;0.22;1.1;9.2;2.2;3.3;
23.0286092730938;120.337956615075;02:56:17.89;2/17/2011;9;0.12;58.23;-3.30880114687204;0.9;0.4;357.091198853128;5.7;0.3;28.8;.04;9.56;9.60;89;12;519.6;16;-0.7;D;2756.8;0;46.833;0.5;0.5;140;33.6192;120.33821;23.02896;0;0;1;N;91;91;15;250;250;33.6192;0;23.44;456;0.22;1.1;9.2;2.2;3.3;
23.0286092711648;120.337956624043;02:56:18.91;2/17/2011;9;0.1;52.64;-3.30880114687204;0.9;0.9;357.591198853128;5.5;-0.3;28.8;.07;9.56;9.62;89;12;519.6;16;-0.7;D;2756.8;0;46.833;0.5;0.5;140;33.61812;120.33821;23.02896;0;0;1;N;90;90;15;250;250;33.61812;0;23.44;456;0.22;-0.1;10.0;2.4;2.5;
23.0286114443956;120.337956604634;02:56:19.91;2/17/2011;9;0.14;30.79;-3.30880114687204;0.9;1.2;357.891198853128;5.2;-1;28.8;.06;9.56;9.62;89;12;519.6;16;-0.7;D;2708.5;0;46.633;0.5;0.5;140;33.78454;120.33821;23.02896;0;0;1;N;89;89;15;250;250;33.78454;0;23.44;456;0.22;0.4;8.1;1.9;2.7;
23.0286109388974;120.337958304842;02:56:20.92;2/17/2011;9;0.19;22.82;-3.30880114687204;0.9;1.8;358.491198853128;5.1;-0.8;28.8;.05;9.36;9.41;89;12;519.6;16;-0.7;D;2708.5;0;46.583;0.5;0.5;140;33.56823;120.33821;23.02896;0;0;1;N;88;88;15;250;250;33.53136;0;23.44;456;0.22;0.1;7.2;1.7;3.2;
23.0286109391054;120.337958314581;02:56:21.94;2/17/2011;9;0.19;341.76;-3.30880114687204;0.9;2.4;359.091198853128;5.1;-0.3;28.8;.03;9.36;9.39;89;12;519.6;16;-0.7;D;2708.5;0;46.582;0.5;0.5;140;33.56722;120.33821;23.02896;0;0;1;N;88;88;15;250;250;33.5309;0;23.45;456;0.22;0.1;5.4;1.3;2.8;
23.0286140512096;120.337956654691;02:56:22.94;2/17/2011;9;0.22;343.46;-3.30880114687204;0.9;3.2;359.891198853128;5.3;0;28.8;.03;9.36;9.39;89;12;519.6;16;-0.7;D;2708.5;0;46.389;0.5;0.5;140;33.97836;120.33821;23.02896;0;0;1;N;89;89;15;250;250;33.93942;0;23.45;455;0.22;0.5;8.2;2.0;3.2;
23.0286143087024;120.337956683059;02:56:23.94;2/17/2011;9;0.25;343.14;-3.30880114687204;0.9;4.4;1.09119885312796;5.6;-0.4;28.8;.05;9.36;9.40;89;12;519.6;16;-0.7;D;2708.3;0;46.364;0.5;0.5;140;33.99516;120.33821;23.02896;0;0;1;N;90;90;15;250;250;33.99516;0;23.45;456;0.22;-0.3;4.9;1.2;2.6;
23.028614273577;120.337956701989;02:56:24.94;2/17/2011;9;0.29;342.02;-3.30880114687204;0.9;5.6;2.29119885312796;5.6;-0.5;28.8;.04;9.36;9.40;89;12;519.6;16;-0.7;D;2708.3;0;46.366;0.5;0.5;140;33.99048;120.33821;23.02896;0;0;1;N;90;90;15;250;250;33.99048;0;23.45;455;0.22;0.4;6.1;1.5;2.6;
23.0286173434254;120.337955121668;02:56:25.97;2/17/2011;9;0.31;351.51;-3.30880114687204;0.9;6.7;3.39119885312796;5.7;-0.2;28.8;.02;9.36;9.37;89;12;519.6;16;-0.7;D;2708.3;0;46.174;0.5;0.5;140;34.39367;120.33821;23.02896;0;0;1;N;91;91;15;250;250;34.39367;0;23.45;456;0.22;0.6;4.6;1.1;3.1;
23.0286190436611;120.337955183006;02:56:26.97;2/17/2011;9;0.33;352.32;-3.30880114687204;0.9;7.9;4.59119885312796;5.7;0.2;28.8;.03;8.86;8.89;89;12;519.6;16;-0.7;D;2708.3;0;46.015;0.5;0.5;140;34.5202;120.33821;23.02896;0;0;1;N;91;91;15;250;250;34.5202;0;23.45;456;0.22;0.5;8.5;2.0;2.9;
23.0286192690906;120.337955105206;02:56:27.97;2/17/2011;9;0.35;13.73;-3.30880114687204;0.9;9.4;6.09119885312796;5.6;0;28.9;.02;8.86;8.88;89;12;519.6;16;-0.7;D;2708.2;0;45.999;0.5;0.5;140;34.54606;120.33821;23.02896;0;0;1;N;90;90;15;250;250;34.54606;0;23.46;456;0.22;0.8;4.7;1.1;2.8;
23.0286209300042;120.337955134804;02:56:28.97;2/17/2011;9;0.37;11.74;-3.30880114687204;0.9;11.1;7.79119885312796;5.7;0;28.9;.01;8.86;8.86;89;12;519.6;16;-0.7;D;2708.2;0;45.845;0.5;0.5;140;34.67383;120.33821;23.02896;0;0;1;N;91;91;15;250;250;34.67383;0;23.46;456;0.22;0.4;2.7;0.6;2.2;
23.0286225928245;120.337956829474;02:56:29.97;2/17/2011;9;0.36;16.32;-3.30880114687204;0.9;12.9;9.59119885312796;5.7;-0.2;28.9;.02;8.76;8.78;89;12;519.6;16;-0.7;D;2708.2;0;45.594;0.5;0.5;140;34.62679;120.33821;23.02896;0;0;1;N;91;91;15;250;250;34.59882;0;23.46;455;0.22;0.7;7.3;1.7;3.1;
23.0286247531;120.337956953424;02:56:30.97;2/17/2011;9;0.38;16.12;-3.30880114687204;0.9;14.5;11.191198853128;5.7;-0.1;28.9;.01;8.75;8.76;89;12;519.5;16;-0.7;D;2708.1;0;45.390;0.5;0.5;140;34.78592;120.33821;23.02896;0;0;1;N;91;91;15;247;247;34.75953;0;23.46;455;0.22;-0.2;3.1;0.7;2.5;
23.0286263749067;120.337956990315;02:56:31.97;2/17/2011;9;0.37;14.65;-3.30880114687204;0.9;15.8;12.491198853128;5.9;-0.2;28.9;.02;8.75;8.78;89;12;519.5;16;-0.7;D;2708.1;0;45.240;0.5;0.5;140;34.91229;120.33821;23.02896;0;0;1;N;92;92;15;239;239;34.88706;0;23.46;455;0.22;0.1;3.9;0.9;2.6;
23.0286275784054;120.337956904819;02:56:32.97;2/17/2011;9;0.41;16.29;-3.30880114687204;0.9;17.3;13.991198853128;5.9;0;28.9;.04;8.65;8.69;89;12;519.5;16;-0.7;D;2708.1;0;45.135;0.5;0.5;140;35.01863;120.33821;23.02896;0;0;1;N;92;92;15;232;232;35.01863;0;23.46;456;0.22;-0.2;3.3;0.8;2.4;
23.0286309053054;120.337956932253;02:56:33.97;2/17/2011;9;0.41;356.06;-3.30880114687204;0.9;19;15.691198853128;5.8;0;28.9;.03;8.65;8.68;89;12;519.5;16;-0.7;D;2708.1;0;44.831;0.5;0.5;140;35.287;120.33821;23.02896;0;0;1;N;91;91;15;225;225;35.287;0;23.46;456;0.22;1.3;5.2;1.2;2.2;
23.0286333333333;120.337956666667;02:56:34.97;2/17/2011;9;0.44;3.08;-3.30880114687204;0.9;20.5;17.191198853128;5.8;-0.4;28.8;.01;8.56;8.56;89;12;519.5;16;-0.7;D;2708.1;0;44.675;0.5;0.5;140;35.42237;120.33821;23.02896;0;0;1;N;91;91;15;220;220;35.42237;0;23.46;456;0.22;0.4;7.1;1.7;3.8;
23.0286355682353;120.33795744339;02:56:35.97;2/17/2011;9;0.44;3.08;-3.30880114687204;0.9;21.8;18.491198853128;5.8;-0.2;28.8;.01;8.46;8.47;89;12;519.5;16;-0.7;D;2708.1;0;44.378;0.5;0.5;140;35.61858;120.33821;23.02896;0;0;1;N;91;91;15;213;213;35.59856;0;23.47;456;0.22;1.0;5.0;1.2;3.1;
23.0286372140489;120.337957503024;02:56:36.97;2/17/2011;9;0.44;3.87;-3.30880114687204;0.9;23.2;19.891198853128;5.7;0;28.8;.02;8.46;8.47;89;12;519.5;16;-0.7;D;2708.1;0;44.226;0.5;0.5;140;35.75024;120.33821;23.02896;0;0;1;N;91;91;15;206;206;35.75024;0;23.47;455;0.22;-0.5;5.0;1.2;3.0;
23.0286396821143;120.337957224999;02:56:37.97;2/17/2011;9;0.45;9.73;-3.30880114687204;0.9;24.5;21.191198853128;5.8;-0.4;28.8;.02;8.36;8.38;89;12;519.5;16;-0.7;D;2708.1;0;44.020;0.5;0.5;140;35.98899;120.33821;23.02896;0;0;1;N;91;91;15;201;201;35.97018;0;23.46;456;0.22;0.0;4.5;1.1;3.2;
23.0286413029802;120.337957247602;02:56:38.97;2/17/2011;9;0.45;8.09;-3.30880114687204;0.9;26;22.691198853128;5.8;-0.2;28.8;.01;8.26;8.27;89;12;519.5;16;-0.7;D;2718.3;0;43.873;0.5;0.5;140;36.12486;120.33821;23.02896;0;0;1;N;91;91;15;194;194;36.12486;0;23.46;455;0.22;0.7;9.0;2.1;3.3;
23.0286429579417;120.337958937767;02:56:39.97;2/17/2011;9;0.5;24.53;-3.30880114687204;0.9;27;23.691198853128;5.8;0;28.8;.04;8.26;8.29;89;12;519.5;16;-0.7;D;2718.3;0;43.622;0.5;0.5;140;36.08386;120.33821;23.02896;0;0;1;N;91;91;15;189;189;36.06905;0;23.46;456;0.22;0.7;8.1;1.9;3.3;
23.0286442214678;120.337958768365;02:56:40.97;2/17/2011;9;0.46;31.64;-3.30880114687204;0.9;27.9;24.591198853128;5.8;-0.7;28.8;.02;8.16;8.18;89;12;519.5;16;-0.7;D;2718.3;0;43.519;0.5;0.5;140;36.21125;120.33821;23.02896;0;0;1;N;91;91;15;185;185;36.21125;0;23.45;456;0.22;0.0;1.8;0.4;2.9;
23.0286463060547;120.337960666891;02:56:41.97;2/17/2011;9;0.46;37.27;-3.30880114687204;0.9;29;25.691198853128;5.6;-0.3;28.8;.01;8.06;8.06;89;12;519.5;16;-0.7;D;2718.3;0;43.217;0.5;0.5;140;36.18497;120.33821;23.02896;0;0;1;N;90;90;15;179;179;36.18497;0;23.45;455;0.22;0.2;7.5;1.8;2.9;
23.0286491720485;120.337962121257;02:56:42.97;2/17/2011;9;0.5;32.31;-3.30880114687204;0.9;30.1;26.791198853128;5.7;-0.5;28.8;.01;7.96;7.98;89;12;519.5;16;-0.7;D;2718.3;0;42.872;0.5;0.5;140;36.27588;120.33821;23.02896;0;0;1;N;91;91;15;174;174;36.27588;0;23.45;455;0.22;1.0;6.9;1.6;2.9;
23.0286508344348;120.3379621358;02:56:43.97;2/17/2011;9;0.49;36;-3.30880114687204;0.9;31.1;27.791198853128;5.7;0;28.8;.02;7.96;7.98;89;12;519.5;16;-0.7;D;2718.3;0;42.723;0.5;0.5;140;36.42095;120.33821;23.02896;0;0;1;N;91;91;15;171;171;36.41008;0;23.44;456;0.22;0.5;3.9;0.9;2.7;
23.0286524914343;120.337963816984;02:56:44.97;2/17/2011;9;0.49;34.6;-3.30880114687204;0.9;31.9;28.591198853128;5.6;-0.2;28.8;.01;7.76;7.77;89;12;519.5;16;-0.7;D;2718.3;0;42.472;0.5;0.5;140;36.38177;120.33821;23.02896;0;0;1;N;90;90;15;166;166;36.37209;0;23.44;455;0.22;0.3;6.9;1.6;3.2;
23.0286545594187;120.337965747173;02:56:45.97;2/17/2011;9;0.4;21.98;-3.30880114687204;0.9;32.8;29.491198853128;5.7;-0.8;28.8;.00;7.86;7.87;89;12;519.5;16;-0.7;D;2718.2;0;42.170;0.5;0.5;140;36.35103;120.33821;23.02896;0;0;1;N;91;91;15;196;196;36.34241;0;23.44;455;0.22;0.2;4.7;1.1;2.8;
23.0286562160913;120.337965770566;02:56:46.97;2/17/2011;9;0.46;21.53;-3.30880114687204;0.9;34;30.691198853128;5.7;0;28.8;.03;7.96;7.99;89;12;519.5;16;-0.7;D;2718.2;0;42.020;0.5;0.5;140;36.49728;120.33821;23.02896;0;0;1;N;91;91;15;185;185;36.48993;0;23.43;455;0.22;0.3;6.4;1.5;2.5;
23.0286574992287;120.33796554888;02:56:47.97;2/17/2011;9;0.44;26.56;-3.30880114687204;0.9;35;31.691198853128;5.8;-0.1;28.8;.02;8.26;8.28;89;12;519.5;16;-0.7;D;2718.2;0;41.919;0.5;0.5;140;36.6382;120.33821;23.02896;0;0;1;N;91;91;15;177;177;36.6382;0;23.42;455;0.22;0.1;3.6;0.9;2.7;
23.0286591255377;120.337967209664;02:56:48.97;2/17/2011;8;0.45;23.66;-3.30880114687204;1;36;32.691198853128;5.8;-0.3;28.8;.02;5.87;5.89;89;12;519.5;16;-0.7;D;2718.2;0;41.673;0.5;0.5;140;36.59908;120.33821;23.02896;0;0;1;N;91;91;15;169;169;36.59908;0;23.41;455;0.22;-0.2;8.4;2.0;3.2;
23.0286628476088;120.337967498133;02:56:49.97;2/17/2011;9;0.46;24.86;-3.30880114687204;0.9;36.6;33.291198853128;5.8;-0.4;28.8;.02;8.36;8.38;89;12;519.5;16;-0.8;D;2697.7;0;41.323;0.5;0.5;140;36.90836;120.33821;23.02896;0;0;1;N;91;91;15;163;163;36.90836;0;23.41;456;0.22;0.5;5.7;1.3;2.8;
23.0286641121091;120.337968898549;02:56:50.97;2/17/2011;9;0.46;21.54;-3.30880114687204;0.9;37.4;34.091198853128;5.7;-0.2;28.8;.01;8.56;8.57;89;12;519.5;16;-0.8;D;2697.7;0;41.125;0.5;0.5;140;36.86635;120.33821;23.02896;0;0;1;N;91;91;15;162;162;36.86635;0;23.41;455;0.22;-0.8;6.5;1.5;3.3;
23.0286658029053;120.33796893157;02:56:51.97;2/17/2011;9;0.5;34.62;-3.30880114687204;0.9;37.9;34.591198853128;5.7;-0.3;28.8;.01;8.56;8.57;89;12;519.5;16;-0.8;D;2697.7;0;40.973;0.5;0.5;140;37.0203;120.33821;23.02896;0;0;1;N;91;91;15;157;157;37.0203;0;23.40;455;0.22;0.4;3.2;0.8;2.4;
23.028667433501;120.337970588597;02:56:52.97;2/17/2011;9;0.5;39.69;-3.30880114687204;0.9;38.7;35.391198853128;5.7;0;28.8;.03;8.76;8.78;89;12;519.5;16;-0.8;D;2697.7;0;40.726;0.5;0.5;140;36.98341;120.33821;23.02896;0;0;1;N;91;91;15;147;147;36.98117;0;23.40;455;0.22;0.6;6.0;1.4;2.6;
23.028669472286;120.337972560426;02:56:53.97;2/17/2011;9;0.49;47.81;-3.30880114687204;0.9;39.5;36.191198853128;5.6;-0.5;28.8;.02;8.76;8.78;89;12;519.5;16;-0.8;D;2697.6;0;40.423;0.5;0.5;140;36.94825;120.33821;23.02896;0;0;1;N;90;90;15;136;136;36.94825;0;23.40;455;0.22;0.8;8.3;2.0;3.5;
23.0286711614945;120.337974261617;02:56:54.97;2/17/2011;9;0.52;42.03;-3.30880114687204;0.9;39.8;36.491198853128;5.6;-0.9;28.8;.03;8.56;8.59;89;12;519.5;16;-0.8;D;2697.6;0;40.169;0.5;0.5;140;36.91085;120.33821;23.02896;0;0;1;N;90;90;15;132;132;36.91005;0;23.40;455;0.22;0.6;5.7;1.4;3.2;
23.0286724509764;120.337975626832;02:56:55.97;2/17/2011;9;0.5;46.17;-3.30880114687204;0.9;39.8;36.491198853128;5.6;-0.5;28.8;.03;8.86;8.88;89;12;519.5;16;-0.8;D;2697.6;0;39.970;0.5;0.5;140;36.87416;120.33821;23.02896;0;0;1;N;90;90;15;132;132;36.87416;0;23.40;455;0.22;0.6;7.1;1.7;3.4;
23.0286740869927;120.337977271204;02:56:56.97;2/17/2011;9;0.53;46.89;-3.30880114687204;0.9;39.9;36.591198853128;5.5;-0.4;28.8;.01;7.96;7.97;89;12;519.5;16;-0.8;D;2697.6;0;39.723;0.5;0.5;140;36.83745;120.33821;23.02896;0;0;1;N;90;90;15;130;130;36.83745;0;23.41;455;0.22;0.1;6.4;1.5;2.9;
23.0286757536593;120.337978937871;02:56:57.97;2/17/2011;9;0.47;34.39;-3.30880114687204;0.9;39.9;36.591198853128;5.5;-0.4;28.8;.02;7.96;7.98;89;12;519.5;16;-0.7;D;2707.7;0;39.473;0.5;0.5;140;36.80059;120.33821;23.02896;0;0;1;N;90;90;15;130;130;36.80059;0;23.41;455;0.22;-0.1;6.3;1.5;2.9;
23.0286783803939;120.337981369637;02:56:58.97;2/17/2011;9;0.51;37.69;-3.30880114687204;0.9;39.8;36.491198853128;5.5;-0.2;28.8;.02;7.66;7.68;89;12;519.5;16;-0.7;D;2707.7;0;39.090;0.5;0.5;140;36.76498;120.33821;23.02896;0;0;1;N;90;90;15;130;130;36.76498;0;23.41;455;0.22;0.8;6.5;1.5;4.5;
23.0286811328601;120.337982569864;02:56:59.97;2/17/2011;9;0.5;35.57;-3.30880114687204;0.9;39.6;36.291198853128;5.5;-0.7;28.8;.01;7.96;7.97;89;12;519.5;16;-0.7;D;2707.7;0;38.771;0.5;0.5;140;36.89029;120.33821;23.02896;0;0;1;N;90;90;15;134;134;36.88928;0;23.41;455;0.22;0.6;6.7;1.6;3.1;
23.0286824250515;120.337982263974;02:57:00.97;2/17/2011;9;0.52;35.84;-3.30880114687204;0.9;39.4;36.091198853128;5.6;-0.4;28.8;.02;7.96;7.98;89;12;519.4;16;-0.7;D;2717.9;0;38.676;0.5;0.5;140;37.05516;120.33821;23.02896;0;0;1;N;90;90;15;139;139;37.05516;0;23.41;455;0.22;0.3;4.0;0.9;2.4;
23.0286840946813;120.337983930779;02:57:01.97;2/17/2011;9;0.51;35.03;-3.30880114687204;0.9;39.3;35.991198853128;5.5;-0.1;28.8;.02;7.96;7.98;89;12;519.4;16;-0.7;D;2717.9;0;38.425;0.5;0.5;140;37.019;120.33821;23.02896;0;0;1;N;90;90;15;140;140;37.019;0;23.40;455;0.22;0.7;6.3;1.5;2.8;
23.0286857914969;120.337985616642;02:57:02.97;2/17/2011;9;0.52;32.99;-3.30880114687204;0.9;39;35.691198853128;5.5;-0.7;28.8;.02;7.96;7.98;89;12;519.4;16;-0.7;D;2717.9;0;38.170;0.5;0.5;140;36.98275;120.33821;23.02896;0;0;1;N;90;90;15;143;143;36.98275;0;23.40;454;0.22;1.1;5.5;1.3;3.0;
23.0286874582025;120.337987283253;02:57:03.97;2/17/2011;9;0.54;50.63;-3.30880114687204;0.9;39.1;35.791198853128;5.4;-0.5;28.8;.00;5.28;5.28;89;12;519.4;16;-0.7;D;2717.9;0;37.919;0.5;0.5;140;36.94535;120.33821;23.02896;0;0;1;N;90;90;15;141;141;36.94535;0;23.39;455;0.22;0.0;1.4;0.3;3.3;
23.0286894730302;120.337989226583;02:57:04.97;2/17/2011;9;0.53;49.54;-3.30880114687204;0.9;39.3;35.991198853128;5.5;-0.4;28.8;.02;7.57;7.58;89;12;519.4;16;-0.7;D;2717.9;0;37.621;0.5;0.5;140;36.90838;120.33821;23.02896;0;0;1;N;90;90;15;138;138;36.90838;0;23.39;455;0.22;0.2;5.1;1.2;3.3;
23.028691141199;120.337990891147;02:57:05.97;2/17/2011;9;0.5;46.46;-3.30880114687204;0.9;39;35.691198853128;5.5;-0.3;28.8;.01;5.77;5.78;89;12;519.4;16;-0.7;D;2717.9;0;37.370;0.5;0.5;140;36.87034;120.33821;23.02896;0;0;1;N;90;90;15;142;142;36.86848;0;23.38;455;0.22;0.1;1.7;0.4;2.9;
23.0286928401137;120.337992577393;02:57:06.97;2/17/2011;9;0.51;47.5;-3.30880114687204;0.9;39;35.691198853128;5.6;0;28.8;.02;5.77;5.80;89;12;519.4;16;-0.7;D;2717.9;0;37.115;0.5;0.5;140;36.83221;120.33821;23.02896;0;0;1;N;90;90;15;141;141;36.8304;0;23.38;454;0.22;0.7;4.7;1.1;3.7;
23.0286944775339;120.337994220271;02:57:07.97;2/17/2011;9;0.52;51.34;-3.30880114687204;0.9;38.9;35.591198853128;5.4;-0.5;28.8;.01;7.57;7.58;89;12;519.4;16;-0.7;D;2717.9;0;36.869;0.5;0.5;140;36.79272;120.33821;23.02896;0;0;1;N;90;90;15;142;142;36.7908;0;23.37;455;0.22;0.7;6.0;1.4;3.0;
23.0286957641314;120.337995588694;02:57:08.97;2/17/2011;9;0.51;45.07;-3.30880114687204;0.9;38.9;35.591198853128;5.5;-0.5;28.8;.02;7.76;7.78;89;12;519.4;16;-0.7;D;2717.8;0;36.671;0.5;0.5;140;36.75138;120.33821;23.02896;0;0;1;N;90;90;15;142;142;36.75138;0;23.38;455;0.22;0.5;3.1;0.7;2.8;
23.0286974602198;120.337997280202;02:57:09.97;2/17/2011;9;0.5;32.12;-3.30880114687204;0.9;38.8;35.491198853128;5.5;-0.7;28.8;.02;6.57;6.60;89;12;519.4;16;-0.7;D;2717.8;0;36.416;0.5;0.5;140;36.71071;120.33821;23.02896;0;0;1;N;90;90;15;142;142;36.71071;0;23.37;455;0.22;-0.1;10.1;2.4;2.1;
23.0287007635905;120.337998922697;02:57:10.97;2/17/2011;9;0.51;31.35;-3.30880114687204;0.9;38.8;35.491198853128;5.7;-0.5;28.8;.02;7.56;7.59;89;12;519.4;16;-0.7;D;2717.8;0;36.021;0.5;0.5;140;36.84564;120.33821;23.02896;0;0;1;N;91;91;15;144;144;36.84564;0;23.37;455;0.22;0.9;8.6;2.0;3.9;
23.0287024309288;120.338000588794;02:57:11.97;2/17/2011;9;0.51;33.95;-3.30880114687204;0.9;38.8;35.491198853128;5.5;-0.3;28.8;.02;7.57;7.59;89;12;519.4;16;-0.7;D;2717.8;0;35.770;0.5;0.5;140;36.80517;120.33821;23.02896;0;0;1;N;90;90;15;143;143;36.80517;0;23.37;455;0.22;0.6;4.5;1.1;3.8;
23.0287041013802;120.338000587352;02:57:12.97;2/17/2011;9;0.54;34.34;-3.30880114687204;0.9;38.6;35.291198853128;5.5;-0.2;28.8;.02;7.57;7.59;89;12;519.4;16;-0.7;D;2717.7;0;35.622;0.5;0.5;140;36.98435;120.33821;23.02896;0;0;1;N;90;90;15;148;148;36.98435;0;23.36;455;0.22;0.1;6.3;1.5;3.4;
23.0287074647094;120.338002272451;02:57:13.97;2/17/2011;9;0.53;26.37;-3.30880114687204;0.9;38.4;35.091198853128;5.7;-0.4;28.8;.02;7.56;7.58;89;12;519.4;16;-0.7;D;2717.7;0;35.220;0.5;0.5;140;37.12628;120.33821;23.02896;0;0;1;N;91;91;15;152;152;37.12628;0;23.36;455;0.22;-0.4;6.9;1.6;2.4;
23.0287094833162;120.338004214933;02:57:14.97;2/17/2011;9;0.52;31.34;-3.30880114687204;0.9;38.8;35.491198853128;5.6;-0.7;28.8;.01;7.66;7.67;89;12;519.4;16;-0.7;D;2717.7;0;34.921;0.5;0.5;140;37.08852;120.33821;23.02896;0;0;1;N;90;90;15;147;147;37.08591;0;23.36;455;0.22;0.3;8.2;1.9;3.2;
23.0287111442933;120.338004219254;02:57:15.97;2/17/2011;9;0.54;43.51;-3.30880114687204;0.9;39;35.691198853128;5.6;-0.1;28.8;.01;7.66;7.67;89;12;519.4;16;-0.7;D;2717.7;0;34.773;0.5;0.5;140;37.27146;120.33821;23.02896;0;0;1;N;90;90;15;147;147;37.26886;0;23.36;455;0.22;0.1;7.1;1.7;2.4;
23.0287128391484;120.338005912329;02:57:17.00;2/17/2011;9;0.5;43.81;-3.30880114687204;0.9;39.2;35.891198853128;5.4;-0.1;28.8;.02;7.76;7.78;89;12;519.4;16;-0.7;D;2717.7;0;34.518;0.5;0.5;140;37.23204;120.33821;23.02896;0;0;1;N;90;90;15;144;144;37.22961;0;23.36;454;0.22;0.7;5.9;1.4;3.1;
23.0287141227408;120.338007286131;02:57:18.00;2/17/2011;9;0.48;45.05;-3.30880114687204;0.9;39.4;36.091198853128;5.5;-0.3;28.8;.02;7.76;7.78;89;12;519.4;16;-0.7;D;2717.7;0;34.320;0.5;0.5;140;37.18935;120.33821;23.02896;0;0;1;N;90;90;15;141;141;37.18935;0;23.36;455;0.22;0.2;5.5;1.3;2.9;
23.0287157585135;120.338008930742;02:57:19.01;2/17/2011;9;0.52;49.75;-3.30880114687204;0.9;39.6;36.291198853128;5.5;-0.4;28.8;.00;7.76;7.76;89;12;519.4;16;-0.7;D;2717.7;0;34.073;0.5;0.5;140;37.14877;120.33821;23.02896;0;0;1;N;90;90;15;140;140;37.14877;0;23.36;455;0.22;0.4;5.2;1.2;3.9;
23.0287174233702;120.338010600365;02:57:20.03;2/17/2011;9;0.52;49.57;-3.30880114687204;0.9;39.5;36.191198853128;5.5;-0.5;28.8;.01;7.77;7.77;89;12;519.4;16;-0.7;D;2710.7;0;33.822;0.5;0.5;140;37.10745;120.33821;23.02896;0;0;1;N;90;90;15;138;138;37.10745;0;23.36;454;0.22;0.3;7.9;1.9;3.5;
23.0287191187189;120.338013958737;02:57:21.03;2/17/2011;9;0.5;50.06;-3.30880114687204;0.9;39.7;36.391198853128;5.5;-0.5;28.8;.02;7.76;7.79;89;12;519.4;16;-0.7;D;2710.7;0;33.465;0.5;0.5;140;36.83291;120.33821;23.02896;0;0;1;N;90;90;15;133;133;36.83291;0;23.36;455;0.22;0.4;6.7;1.6;3.2;
23.0287211975545;120.3380159432;02:57:22.05;2/17/2011;9;0.52;43.61;-3.30880114687204;0.9;39.4;36.091198853128;5.5;-0.4;28.8;.02;7.76;7.78;89;12;519.4;16;-0.7;D;2710.7;0;33.158;0.5;0.5;140;36.7915;120.33821;23.02896;0;0;1;N;90;90;15;136;136;36.7915;0;23.37;455;0.22;0.1;7.3;1.7;3.4;
23.028724474951;120.338017557049;02:57:23.06;2/17/2011;9;0.54;42.09;-3.30880114687204;0.9;39.1;35.791198853128;5.5;-0.5;28.8;.02;7.96;7.99;89;12;519.4;16;-0.7;D;2710.7;0;32.768;0.5;0.5;140;36.94188;120.33821;23.02896;0;0;1;N;90;90;15;141;141;36.93981;0;23.37;455;0.22;1.0;7.0;1.7;3.6;
23.0287261436597;120.338019220942;02:57:24.08;2/17/2011;9;0.55;38.84;-3.30880114687204;0.9;39;35.691198853128;5.4;-0.5;28.8;.02;7.96;7.98;89;12;519.4;16;-0.7;D;2710.7;0;32.517;0.5;0.5;140;36.89858;120.33821;23.02896;0;0;1;N;90;90;15;142;142;36.89858;0;23.38;455;0.22;0.6;6.0;1.4;2.9;
23.0287278437148;120.338020905722;02:57:25.08;2/17/2011;9;0.54;36.3;-3.30880114687204;0.9;38.6;35.291198853128;5.5;-0.3;28.8;.02;7.96;7.98;89;12;519.4;16;-0.7;D;2710.7;0;32.262;0.5;0.5;140;36.85529;120.33821;23.02896;0;0;1;N;90;90;15;147;147;36.85252;0;23.37;454;0.22;0.8;6.9;1.6;3.5;
23.0287294854077;120.338022545524;02:57:26.09;2/17/2011;9;0.55;41.36;-3.30880114687204;0.9;38.5;35.191198853128;5.5;-0.6;28.8;.02;7.96;7.98;89;12;519.4;16;-0.7;D;2710.7;0;32.016;0.5;0.5;140;36.81094;120.33821;23.02896;0;0;1;N;90;90;15;147;147;36.81094;0;23.38;455;0.22;1.0;7.5;1.8;3.5;
23.0287328204675;120.338024205923;02:57:27.11;2/17/2011;9;0.56;43.49;-3.30880114687204;0.9;38.3;34.991198853128;5.4;-0.5;28.8;.00;7.86;7.87;89;12;519.4;16;-0.7;D;2710.7;0;31.617;0.5;0.5;140;36.96709;120.33821;23.02896;0;0;1;N;90;90;15;152;152;36.96709;0;23.38;454;0.22;0.6;7.6;1.8;3.1;
23.0287345168481;120.338024229476;02:57:28.11;2/17/2011;9;0.53;41.44;-3.30880114687204;0.9;38.3;34.991198853128;5.4;-0.1;28.8;.01;7.86;7.87;89;12;519.4;16;-0.7;D;2710.6;0;31.465;0.5;0.5;140;37.17014;120.33821;23.02896;0;0;1;N;90;90;15;154;154;37.16598;0;23.38;454;0.22;0.5;7.8;1.9;3.0;
23.0287361569795;120.338025871747;02:57:29.11;2/17/2011;9;0.51;41.71;-3.30880114687204;0.9;38.2;34.891198853128;5.4;-0.2;28.8;.02;7.96;7.98;89;12;519.4;16;-0.7;D;2710.6;0;31.218;0.5;0.5;140;37.12659;120.33821;23.02896;0;0;1;N;90;90;15;155;155;37.12659;0;23.38;454;0.22;0.3;9.1;2.1;3.1;
23.0287378212802;120.33802753771;02:57:30.11;2/17/2011;9;0.51;40.38;-3.30880114687204;0.9;38.2;34.891198853128;5.4;-0.3;28.8;.01;7.96;7.98;89;12;519.4;16;-0.7;D;2710.6;0;30.968;0.5;0.5;140;37.08176;120.33821;23.02896;0;0;1;N;90;90;15;154;154;37.08176;0;23.38;454;0.22;0.5;8.4;2.0;3.0;
23.0287395180257;120.33802922704;02:57:31.14;2/17/2011;9;0.46;41.23;-3.30880114687204;0.9;38.3;34.991198853128;5.6;-0.6;28.8;.01;7.96;7.98;89;12;519.4;16;-0.7;D;2710.6;0;30.713;0.5;0.5;140;37.0367;120.33821;23.02896;0;0;1;N;90;90;15;153;153;37.0367;0;23.38;454;0.22;0.7;7.5;1.8;3.3;
23.0287411836573;120.33803089517;02:57:32.14;2/17/2011;9;0.49;42.86;-3.30880114687204;0.9;38.3;34.991198853128;5.5;-0.4;28.8;.01;8.16;8.17;89;12;519.4;16;-0.7;D;2710.6;0;30.462;0.5;0.5;140;36.99022;120.33821;23.02896;0;0;1;N;90;90;15;152;152;36.98628;0;23.38;454;0.22;0.7;7.5;1.8;3.3;
23.028742819337;120.338032540563;02:57:33.14;2/17/2011;9;0.46;43.53;-3.30880114687204;0.9;38.4;35.091198853128;5.4;-0.1;28.8;.01;8.26;8.27;89;12;519.4;16;-0.7;D;2710.6;0;30.216;0.5;0.5;140;36.94271;120.33821;23.02896;0;0;1;N;90;90;15;150;150;36.94271;0;23.38;455;0.22;1.0;6.7;1.6;3.8;
23.0287448710604;120.338034500603;02:57:34.14;2/17/2011;9;0.51;35.9;-3.30880114687204;0.9;38.4;35.091198853128;5.6;-0.3;28.9;.01;8.26;8.27;89;12;519.4;16;-0.7;D;2710.6;0;29.913;0.5;0.5;140;36.89828;120.33821;23.02896;0;0;1;N;90;90;15;150;150;36.89486;0;23.38;454;0.22;0.7;3.4;0.8;2.5;
23.0287465637367;120.338034525753;02:57:35.14;2/17/2011;9;0.5;34.22;-3.30880114687204;0.9;38.7;35.391198853128;5.6;-0.3;28.9;.01;7.96;7.97;89;12;519.3;16;-0.7;D;2710.6;0;29.761;0.5;0.5;140;37.11188;120.33821;23.02896;0;0;1;N;90;90;15;148;148;37.1086;0;23.38;454;0.22;0.3;5.5;1.3;3.5;
23.0287494832359;120.338035878286;02:57:36.14;2/17/2011;9;0.52;32.07;-3.30880114687204;0.9;38.7;35.391198853128;5.4;-0.4;28.9;.01;7.77;7.78;89;12;519.3;16;-0.7;D;2710.6;0;29.419;0.5;0.5;140;37.2784;120.33821;23.02896;0;0;1;N;90;90;15;151;151;37.27479;0;23.37;454;0.22;0.6;8.6;2.0;3.5;
23.0287511504321;120.338037548611;02:57:37.14;2/17/2011;9;0.53;27.25;-3.30880114687204;0.9;38.6;35.291198853128;5.3;-0.6;28.9;.01;8.36;8.37;89;12;519.3;16;-0.7;D;2710.6;0;29.168;0.5;0.5;140;37.23179;120.33821;23.02896;0;0;1;N;89;89;15;151;151;37.22806;0;23.37;454;0.22;0.6;8.6;2.0;3.5;
23.0287548970893;120.33803786027;02:57:38.16;2/17/2011;9;0.54;27.97;-3.30880114687204;0.9;38.5;35.191198853128;5.4;-0.1;28.9;.01;8.56;8.58;89;12;519.3;16;-0.7;D;2710.6;0;28.818;0.5;0.5;140;37.68248;120.33821;23.02896;0;0;1;N;90;90;15;158;158;37.6777;0;23.37;454;0.22;0.3;8.0;1.9;3.3;
23.0287561838457;120.338039228646;02:57:39.16;2/17/2011;9;0.53;34.86;-3.30880114687204;0.9;38.3;34.991198853128;5.4;-0.3;28.9;.00;8.56;8.56;89;12;519.3;16;-0.7;D;2717.3;0;28.619;0.5;0.5;140;37.63571;120.33821;23.02896;0;0;1;N;90;90;15;160;160;37.63571;0;23.37;454;0.22;-0.4;4.9;1.2;2.8;
23.0287578170408;120.338040877562;02:57:40.16;2/17/2011;9;0.54;40.16;-3.30880114687204;0.9;38.6;35.291198853128;5.4;-0.4;28.9;.02;8.66;8.68;89;12;519.3;16;-0.7;D;2717.3;0;28.372;0.5;0.5;140;37.58981;120.33821;23.02896;0;0;1;N;90;90;15;154;154;37.58981;0;23.37;454;0.22;-0.4;4.9;1.2;2.8;
23.0287594825068;120.338042545479;02:57:41.16;2/17/2011;9;0.52;44.16;-3.30880114687204;0.9;38.6;35.291198853128;5.6;-0.1;28.9;.02;8.56;8.58;89;12;519.3;16;-0.7;D;2717.3;0;28.121;0.5;0.5;140;37.54441;120.33821;23.02896;0;0;1;N;90;90;15;155;155;37.54441;0;23.37;454;0.22;0.3;9.2;2.2;3.6;
23.0287611787106;120.338044236989;02:57:42.17;2/17/2011;9;0.5;38.92;-3.30880114687204;0.9;38.6;35.291198853128;5.5;-0.2;28.9;.01;8.66;8.67;89;12;519.3;16;-0.7;D;2717.3;0;27.866;0.5;0.5;140;37.49853;120.33821;23.02896;0;0;1;N;90;90;15;155;155;37.49853;0;23.37;454;0.22;0.7;7.9;1.9;4.1;
23.0287644835796;120.338045877465;02:57:43.17;2/17/2011;9;0.48;41.78;-3.30880114687204;0.9;38.6;35.291198853128;5.4;-0.3;28.9;.02;8.66;8.68;89;12;519.3;16;-0.7;D;2717.2;0;27.473;0.5;0.5;140;37.68731;120.33821;23.02896;0;0;1;N;90;90;15;157;157;37.68731;0;23.37;454;0.22;0.7;7.9;1.9;4.1;
23.0287661506576;120.338045876695;02:57:44.19;2/17/2011;9;0.49;43.53;-3.30880114687204;0.9;38.5;35.191198853128;5.5;-0.2;28.9;.02;8.76;8.78;89;12;519.3;16;-0.7;D;2717.2;0;27.326;0.5;0.5;140;37.92506;120.33821;23.02896;0;0;1;N;90;90;15;161;161;37.92506;0;23.37;454;0.22;0.8;4.4;1.0;2.9;
23.0287682297208;120.338047860904;02:57:45.20;2/17/2011;9;0.49;46.55;-3.30880114687204;0.9;38.6;35.291198853128;5.4;-0.5;28.9;.02;8.76;8.78;89;12;519.3;16;-0.7;D;2717.2;0;27.019;0.5;0.5;140;37.88672;120.33821;23.02896;0;0;1;N;90;90;15;159;159;37.88104;0;23.37;454;0.22;1.4;8.5;2.0;3.3;
23.0287698887827;120.338049543812;02:57:46.22;2/17/2011;9;0.49;37.03;-3.30880114687204;0.9;39.2;35.891198853128;5.4;-0.7;28.9;.02;8.56;8.58;89;12;519.3;16;-0.7;D;2717.2;0;26.768;0.5;0.5;140;37.83828;120.33821;23.02896;0;0;1;N;90;90;15;151;151;37.83418;0;23.37;454;0.22;1.4;8.5;2.0;3.3;
23.0287715208733;120.338051189086;02:57:47.22;2/17/2011;9;0.53;30.79;-3.30880114687204;0.9;39;35.691198853128;5.5;-0.5;28.9;.02;8.56;8.58;89;12;519.3;16;-0.7;D;2717.2;0;26.521;0.5;0.5;140;37.79153;120.33821;23.02896;0;0;1;N;90;90;15;151;151;37.78711;0;23.37;454;0.22;0.6;7.4;1.8;2.8;
23.0287731884548;120.338052858653;02:57:48.22;2/17/2011;9;0.52;35.96;-3.30880114687204;0.9;39.4;36.091198853128;5.5;-0.3;28.8;.02;8.56;8.58;89;12;519.3;16;-0.7;D;2717.1;0;26.270;0.5;0.5;140;37.74488;120.33821;23.02896;0;0;1;N;90;90;15;148;148;37.7413;0;23.36;454;0.22;-0.3;8.3;2.0;3.5;
23.0287761671792;120.338054253705;02:57:49.22;2/17/2011;9;0.54;38.48;-3.30880114687204;0.9;39.4;36.091198853128;5.5;-0.2;28.8;.01;8.46;8.48;89;12;519.3;16;-0.7;D;2717.1;0;25.921;0.5;0.5;140;37.94353;120.33821;23.02896;0;0;1;N;90;90;15;150;150;37.94353;0;23.36;454;0.22;-0.3;8.3;2.0;3.5;
23.0287778318719;120.338054256618;02:57:50.22;2/17/2011;9;0.55;34.37;-3.30880114687204;0.9;39.7;36.391198853128;5.5;-0.2;28.8;.02;8.46;8.48;89;12;519.3;16;-0.7;D;2717.1;0;25.775;0.5;0.5;140;38.19602;120.33821;23.02896;0;0;1;N;90;90;15;150;150;38.19602;0;23.36;454;0.22;-0.2;6.8;1.6;2.7;
23.028779466617;120.338055902436;02:57:51.22;2/17/2011;9;0.55;29.83;-3.30880114687204;0.9;39.7;36.391198853128;5.5;-0.7;28.8;.01;8.46;8.47;89;12;519.3;16;-0.7;D;2717.1;0;25.528;0.5;0.5;140;38.15122;120.33821;23.02896;0;0;1;N;90;90;15;149;149;38.15122;0;23.36;454;0.22;0.4;8.6;2.0;3.2;
23.0287828262387;120.338057597905;02:57:52.22;2/17/2011;9;0.51;39.4;-3.30880114687204;0.9;39.9;36.591198853128;5.7;-0.7;28.8;.03;8.56;8.59;89;12;519.3;16;-0.7;D;2717.1;0;25.127;0.5;0.5;140;38.36632;120.33821;23.02896;0;0;1;N;91;91;15;149;149;38.36632;0;23.36;454;0.22;0.1;7.8;1.9;2.7;
23.0287848698871;120.338059567049;02:57:53.22;2/17/2011;9;0.5;40.11;-3.30880114687204;0.9;39.9;36.591198853128;5.4;-0.1;28.8;.01;8.56;8.57;89;12;519.3;16;-0.7;D;2717.1;0;24.824;0.5;0.5;140;38.3272;120.33821;23.02896;0;0;1;N;90;90;15;149;149;38.3272;0;23.35;454;0.22;0.7;8.2;1.9;3.3;
23.0287865121002;120.338061206293;02:57:54.22;2/17/2011;9;0.47;36.88;-3.30880114687204;0.9;39.8;36.491198853128;5.5;-0.5;28.9;.02;8.56;8.58;89;12;519.3;16;-0.7;D;2706.8;0;24.576;0.5;0.5;140;38.28441;120.33821;23.02896;0;0;1;N;90;90;15;149;149;38.28441;0;23.35;454;0.22;0.7;8.2;1.9;3.3;
23.0287881745973;120.338061208465;02:57:55.23;2/17/2011;8;0.48;45.26;-3.30880114687204;1.1;39.9;36.591198853128;5.4;-0.3;28.9;.02;8.56;8.58;89;12;519.3;16;-0.7;D;2706.8;0;24.431;0.5;0.5;140;38.55261;120.33821;23.02896;0;0;1;N;90;90;15;152;152;38.55261;0;23.35;454;0.22;-0.4;5.4;1.3;3.6;
23.0287898993247;120.338062925186;02:57:56.23;2/17/2011;9;0.49;44.85;-3.30880114687204;0.9;39.9;36.591198853128;5.4;-0.2;28.9;.01;8.56;8.58;89;12;519.3;16;-0.7;D;2706.8;0;24.172;0.5;0.5;140;38.51027;120.33821;23.02896;0;0;1;N;90;90;15;151;151;38.50546;0;23.34;454;0.22;0.5;4.7;1.1;4.2;
23.0287911598556;120.338064264886;02:57:57.23;2/17/2011;9;0.48;43.56;-3.30880114687204;0.9;39.9;36.591198853128;5.3;-0.7;28.9;.02;8.56;8.58;89;12;519.3;16;-0.7;D;2706.8;0;23.977;0.5;0.5;140;38.46247;120.33821;23.02896;0;0;1;N;89;89;15;150;150;38.46247;0;23.34;454;0.22;0.5;4.7;1.1;4.2;
23.0287927961952;120.338065912662;02:57:58.25;2/17/2011;9;0.51;44.13;-3.30880114687204;0.9;40;36.691198853128;5.5;-0.4;28.8;.02;8.86;8.88;89;12;519.3;16;-0.7;D;2706.8;0;23.730;0.5;0.5;140;38.41693;120.33821;23.02896;0;0;1;N;90;90;15;149;149;38.41693;0;23.34;454;0.22;-0.6;10.3;2.4;3.2;
23.0287944621151;120.338067576515;02:57:59.26;2/17/2011;9;0.53;40.71;-3.30880114687204;0.9;40.1;36.791198853128;5.3;-0.6;28.9;.01;8.86;8.87;89;12;519.3;16;-0.7;D;2706.8;0;23.479;0.5;0.5;140;38.37227;120.33821;23.02896;0;0;1;N;89;89;15;147;147;38.37227;0;23.34;454;0.22;-0.2;5.6;1.3;3.1;
23.0287970703569;120.338070326183;02:58:00.26;2/17/2011;8;0.53;37.75;-3.30880114687204;1;40.1;36.791198853128;5.4;-0.5;28.8;.02;8.86;8.88;89;12;519.3;16;-0.7;D;2706.8;0;23.077;0.5;0.5;140;38.27155;120.33821;23.02896;0;0;1;N;90;90;15;146;146;38.27155;0;23.34;454;0.22;-0.2;5.6;1.3;3.1;
23.028801796724;120.338073113148;02:58:01.92;2/17/2011;9;0.54;40.01;-3.30880114687204;0.9;40;36.691198853128;5.4;-0.2;28.9;.01;8.86;8.87;89;12;519.3;16;-0.7;D;2706.8;0;22.488;0.5;0.5;140;38.53045;120.33821;23.02896;0;0;1;N;90;90;15;147;147;38.28693;0;23.34;454;0.22;0.2;8.1;1.9;3.0;
23.0288027986188;120.338074238008;02:58:02.94;2/17/2011;9;0.54;37.06;-3.30880114687204;0.9;39.8;36.491198853128;5.5;-0.1;28.8;.01;8.86;8.87;89;12;519.3;16;-0.7;D;2706.8;0;22.329;0.5;0.5;140;38.47746;120.33821;23.02896;0;0;1;N;90;90;15;152;152;38.47248;0;23.34;454;0.22;0.3;5.8;1.4;3.1;
23.0288041177074;120.338073960218;02:58:03.94;2/17/2011;9;0.48;36.48;-3.30880114687204;0.9;40;36.691198853128;5.5;-0.4;28.8;.01;8.96;8.97;89;12;519.3;16;-0.7;D;2706.8;0;22.232;0.5;0.5;140;38.77002;120.33821;23.02896;0;0;1;N;90;90;15;155;155;38.77002;0;23.33;454;0.22;1.4;9.9;2.3;3.1;
23.0288057546603;120.338075607551;02:58:04.94;2/17/2011;9;0.49;40.93;-3.30880114687204;0.9;40;36.691198853128;5.3;-0.4;28.8;.01;8.96;8.97;89;12;519.2;16;-0.7;D;2706.6;0;21.984;0.5;0.5;140;38.72453;120.33821;23.02896;0;0;1;N;89;89;15;152;152;38.72453;0;23.33;453;0.22;0.0;5.9;1.4;3.4;
23.028807421788;120.338077269071;02:58:05.95;2/17/2011;9;0.5;43.89;-3.30880114687204;0.9;39.8;36.491198853128;5.5;-0.3;28.8;.02;8.96;8.98;89;12;519.2;16;-0.7;D;2706.6;0;21.733;0.5;0.5;140;38.68055;120.33821;23.02896;0;0;1;N;90;90;15;154;154;38.68055;0;23.33;454;0.22;0.1;5.1;1.2;3.7;
23.0288107837773;120.338078957457;02:58:06.97;2/17/2011;9;0.5;45.4;-3.30880114687204;0.9;39.7;36.391198853128;5.4;-0.4;28.8;.01;8.96;8.97;89;12;519.2;16;-0.7;D;2706.6;0;21.334;0.5;0.5;140;38.9458;120.33821;23.02896;0;0;1;N;90;90;15;159;159;38.9458;0;23.33;454;0.22;1.0;5.6;1.3;4.2;
23.0288124231601;120.338080604602;02:58:07.97;2/17/2011;9;0.48;37.89;-3.30880114687204;0.9;39.9;36.591198853128;5.5;-0.5;28.8;.02;8.96;8.98;89;12;519.2;16;-0.7;D;2706.6;0;21.086;0.5;0.5;140;38.90094;120.33821;23.02896;0;0;1;N;90;90;15;156;156;38.90094;0;23.32;454;0.22;1.0;8.4;2.0;3.2;
23.0288140880938;120.338082269883;02:58:08.97;2/17/2011;9;0.46;36.3;-3.30880114687204;0.9;39.8;36.491198853128;5.3;-0.3;28.8;.01;9.06;9.06;89;12;519.2;16;-0.7;D;2706.6;0;20.835;0.5;0.5;140;38.85594;120.33821;23.02896;0;0;1;N;90;90;15;156;156;38.84966;0;23.32;454;0.22;1.0;6.4;1.5;2.9;
23.0288161327711;120.338082574197;02:58:09.97;2/17/2011;9;0.5;36.29;-3.30880114687204;0.9;39.8;36.491198853128;5.6;-0.5;28.8;.01;9.06;9.07;89;12;519.2;16;-0.7;D;2706.6;0;20.639;0.5;0.5;140;39.18459;120.33821;23.02896;0;0;1;N;90;90;15;159;159;39.17739;0;23.32;454;0.22;0.8;7.8;1.8;3.5;
23.0288178279369;120.33808426254;02:58:10.97;2/17/2011;9;0.5;35.6;-3.30880114687204;0.9;39.9;36.591198853128;5.4;-0.5;28.8;.02;9.16;9.17;89;12;519.2;16;-0.7;D;2706.6;0;20.384;0.5;0.5;140;39.14292;120.33821;23.02896;0;0;1;N;90;90;15;159;159;39.13602;0;23.32;454;0.22;0.2;7.4;1.8;3.8;
23.028819081092;120.338085613032;02:58:11.97;2/17/2011;9;0.53;32.29;-3.30880114687204;0.9;40.5;37.191198853128;5.4;-0.6;28.8;.01;9.16;9.17;89;12;519.2;16;-0.7;D;2706.6;0;20.188;0.5;0.5;140;39.08837;120.33821;23.02896;0;0;1;N;90;90;15;151;151;39.08837;0;23.31;453;0.22;-0.1;11.4;2.7;3.1;
23.0288224124021;120.338087286951;02:58:12.97;2/17/2011;9;0.52;30.4;-3.30880114687204;0.9;40.6;37.291198853128;5.5;-0.5;28.8;.01;9.16;9.16;89;12;519.2;16;-0.7;D;2706.5;0;19.793;0.5;0.5;140;39.37959;120.33821;23.02896;0;0;1;N;90;90;15;153;153;39.37959;0;23.31;453;0.22;0.4;7.6;1.8;3.1;
23.0288240778574;120.338087284826;02:58:13.97;2/17/2011;9;0.55;32.8;-3.30880114687204;0.9;40.9;37.591198853128;5.3;-0.3;28.8;.01;9.26;9.27;89;12;519.2;16;-0.7;D;2706.5;0;19.650;0.5;0.5;140;39.72267;120.33821;23.02896;0;0;1;N;89;89;15;154;154;39.72267;0;23.30;454;0.22;0.7;8.9;2.1;3.7;
23.0288257736598;120.338088975552;02:58:14.97;2/17/2011;9;0.53;30.97;-3.30880114687204;0.9;41;37.691198853128;5.4;-0.3;28.8;.02;9.26;9.27;89;12;519.2;16;-0.7;D;2706.5;0;19.395;0.5;0.5;140;39.68554;120.33821;23.02896;0;0;1;N;90;90;15;152;152;39.68554;0;23.30;454;0.22;0.4;10.2;2.4;3.9;
23.0288290752328;120.338090621562;02:58:15.97;2/17/2011;9;0.5;37.64;-3.30880114687204;0.9;41.1;37.791198853128;5.4;-0.3;28.8;.01;9.26;9.27;89;12;519.2;16;-0.7;D;2706.5;0;19.005;0.5;0.5;140;40.00151;120.33821;23.02896;0;0;1;N;90;90;15;155;155;40.00151;0;23.30;454;0.22;0.5;8.9;2.1;3.5;
23.0288307408943;120.338092289627;02:58:16.97;2/17/2011;9;0.52;46.99;-3.30880114687204;0.9;41.2;37.891198853128;5.5;-0.2;28.9;.02;9.36;9.37;89;12;519.2;16;-0.7;D;2706.4;0;18.753;0.5;0.5;140;39.96575;120.33821;23.02896;0;0;1;N;90;90;15;153;153;39.96575;0;23.29;453;0.22;0.1;9.5;2.3;2.7;
23.0288328056268;120.338094294625;02:58:18.00;2/17/2011;9;0.48;45.59;-3.30880114687204;0.9;41.5;38.191198853128;5.5;0;28.9;.01;9.36;9.37;89;12;519.2;16;-0.7;D;2706.4;0;18.446;0.5;0.5;140;39.93536;120.33821;23.02896;0;0;1;N;90;90;15;151;151;39.92959;0;23.29;454;0.22;-0.3;7.1;1.7;3.4;
23.0288344670823;120.338095968215;02:58:19.01;2/17/2011;9;0.49;43.88;-3.30880114687204;0.9;41.7;38.391198853128;5.5;-0.7;28.8;.01;9.36;9.37;89;12;519.2;16;-0.7;D;2706.4;0;18.194;0.5;0.5;140;39.89528;120.33821;23.02896;0;0;1;N;90;90;15;146;146;39.89054;0;23.28;453;0.22;1.3;6.8;1.6;3.8;
23.0288360974366;120.338097619693;02:58:20.01;2/17/2011;9;0.49;45.24;-3.30880114687204;0.9;42.1;38.791198853128;5.5;-0.7;28.8;.02;9.46;9.47;89;12;519.2;16;-0.7;D;2706.3;0;17.947;0.5;0.5;140;39.85255;120.33821;23.02896;0;0;1;N;90;90;15;140;140;39.85255;0;23.27;454;0.22;0.3;7.6;1.8;3.7;
23.0288377632675;120.338099291322;02:58:21.01;2/17/2011;9;0.48;46.5;-3.30880114687204;0.9;42.2;38.891198853128;5.5;-0.8;28.9;.01;9.45;9.46;89;12;519.2;16;-0.7;D;2706.3;0;17.695;0.5;0.5;140;39.81166;120.33821;23.02896;0;0;1;N;90;90;15;138;138;39.80849;0;23.27;454;0.22;0.9;7.3;1.7;3.3;
23.0288390889108;120.338100663218;02:58:22.03;2/17/2011;9;0.49;42.38;-3.30880114687204;0.9;42.4;39.091198853128;5.4;-0.6;28.9;.02;9.56;9.57;89;12;519.2;16;-0.7;D;2706.3;0;17.491;0.5;0.5;140;39.76756;120.33821;23.02896;0;0;1;N;90;90;15;135;135;39.76756;0;23.26;454;0.22;0.5;7.6;1.8;3.6;
23.0288407273778;120.338100640745;02:58:23.03;2/17/2011;9;0.56;37.42;-3.30880114687204;0.9;42.5;39.191198853128;5.6;-0.5;28.9;.01;9.65;9.66;89;12;519.2;16;-0.7;D;2706.3;0;17.354;0.5;0.5;140;40.15819;120.33821;23.02896;0;0;1;N;90;90;15;139;139;40.15819;0;23.26;453;0.22;1.0;7.2;1.7;3.7;
23.0288423950421;120.33810231058;02:58:24.05;2/17/2011;8;0.53;39.24;-3.30880114687204;1.1;42.8;39.491198853128;5.4;-0.6;28.9;.01;9.66;9.67;89;12;519.2;16;-0.7;D;2706.3;0;17.102;0.5;0.5;140;40.1213;120.33821;23.02896;0;0;1;N;90;90;15;135;135;40.1213;0;23.26;454;0.22;0.1;7.4;1.8;3.1;
23.0288457264649;120.338103975558;02:58:25.06;2/17/2011;9;0.55;40.12;-3.30880114687204;0.9;42.6;39.291198853128;5.5;-0.6;28.8;.02;9.66;9.67;89;12;519.2;16;-0.7;D;2706.3;0;16.709;0.5;0.5;140;40.4931;120.33821;23.02896;0;0;1;N;90;90;15;142;142;40.4931;0;23.25;454;0.22;-0.6;5.5;1.3;3.5;
23.0288477851189;120.338105988758;02:58:26.06;2/17/2011;9;0.54;36.99;-3.30880114687204;0.9;42.6;39.291198853128;5.4;-0.2;28.9;.01;9.26;9.27;89;12;519.2;16;-0.7;D;2706.3;0;16.401;0.5;0.5;140;40.46506;120.33821;23.02896;0;0;1;N;90;90;15;142;142;40.46506;0;23.24;453;0.22;0.1;6.4;1.5;3.3;
23.0288494226927;120.338107630849;02:58:27.08;2/17/2011;9;0.56;33.73;-3.30880114687204;0.9;42.7;39.391198853128;5.4;-0.3;28.9;.00;9.16;9.16;89;12;519.2;16;-0.7;D;2706.3;0;16.153;0.5;0.5;140;40.43075;120.33821;23.02896;0;0;1;N;90;90;15;140;140;40.43075;0;23.24;453;0.22;-0.1;5.1;1.2;2.9;
23.028852756026;120.338109297516;02:58:28.09;2/17/2011;9;0.52;44.75;-3.30880114687204;0.9;42.7;39.391198853128;5.4;-0.3;28.9;.02;9.16;9.18;89;12;519.2;16;-0.7;D;2723.4;0;15.761;0.5;0.5;140;40.83265;120.33821;23.02896;0;0;1;N;90;90;15;146;146;40.83265;0;23.23;453;0.22;0.4;5.7;1.3;3.0;
23.028854450247;120.338110990919;02:58:29.09;2/17/2011;9;0.5;48.67;-3.30880114687204;0.9;42.7;39.391198853128;5.4;-0.4;28.9;.01;9.06;9.07;89;12;519.2;16;-0.7;D;2723.4;0;15.505;0.5;0.5;140;40.80331;120.33821;23.02896;0;0;1;N;90;90;15;145;145;40.79764;0;23.21;453;0.22;-0.1;6.4;1.5;4.0;
23.0288560901077;120.338112633804;02:58:30.09;2/17/2011;9;0.51;46.52;-3.30880114687204;0.9;42.7;39.391198853128;5.4;-0.5;28.8;.01;9.86;9.87;89;12;519.2;16;-0.7;D;2723.4;0;15.258;0.5;0.5;140;40.77287;120.33821;23.02896;0;0;1;N;90;90;15;144;144;40.77287;0;23.21;453;0.22;-0.1;6.4;1.5;4.0;
23.0288577487218;120.33811430707;02:58:31.09;2/17/2011;9;0.47;41.6;-3.30880114687204;0.9;43.1;39.791198853128;5.4;-0.2;28.9;.01;9.76;9.76;89;12;519.2;16;-0.7;D;2723.1;0;15.006;0.5;0.5;140;40.73763;120.33821;23.02896;0;0;1;N;90;90;15;139;139;40.7338;0;23.20;453;0.22;0.7;7.8;1.9;3.3;
23.0288594463307;120.338115995641;02:58:32.09;2/17/2011;9;0.51;45.95;-3.30880114687204;0.9;43;39.691198853128;5.5;-0.3;28.8;.01;9.85;9.86;89;12;519.2;16;-0.7;D;2723.1;0;14.750;0.5;0.5;140;40.70755;120.33821;23.02896;0;0;1;N;90;90;15;140;140;40.70341;0;23.19;453;0.22;0.1;5.9;1.4;3.1;
23.0288607519488;120.338117338463;02:58:33.09;2/17/2011;9;0.5;46.92;-3.30880114687204;0.9;43;39.691198853128;5.4;-0.1;28.8;.03;9.86;9.88;89;12;519.2;16;-0.7;D;2723.1;0;14.550;0.5;0.5;140;40.67021;120.33821;23.02896;0;0;1;N;90;90;15;139;139;40.67021;0;23.17;453;0.22;-0.1;7.7;1.8;4.0;
23.0288627563724;120.338119301259;02:58:34.09;2/17/2011;9;0.53;34.92;-3.30880114687204;0.9;42.7;39.391198853128;5.3;-0.2;28.8;.00;9.96;9.96;89;12;519.2;16;-0.7;D;2723.1;0;14.250;0.5;0.5;140;40.64169;120.33821;23.02896;0;0;1;N;89;89;15;143;143;40.64169;0;23.17;453;0.22;-0.1;7.7;1.8;4.0;
23.0288644309527;120.338119286519;02:58:35.09;2/17/2011;9;0.51;34.21;-3.30880114687204;0.9;42.1;38.791198853128;5.3;-0.4;28.9;.02;9.96;9.97;89;12;519.1;16;-0.7;D;2730;0;14.111;0.5;0.5;140;41.13881;120.33821;23.02896;0;0;1;N;89;89;15;156;156;41.13881;0;23.16;453;0.22;0.5;9.1;2.1;3.5;
23.0288661266422;120.338120978383;02:58:36.09;2/17/2011;9;0.52;35.75;-3.30880114687204;0.9;42.1;38.791198853128;5.4;-0.5;28.9;.01;9.96;9.97;89;12;519.1;16;-0.7;D;2730;0;13.855;0.5;0.5;140;41.11257;120.33821;23.02896;0;0;1;N;89;89;15;155;155;41.11257;0;23.16;453;0.22;1.0;6.2;1.5;2.7;
23.0288694314654;120.338122619162;02:58:37.09;2/17/2011;9;0.52;34.1;-3.30880114687204;0.9;42.1;38.791198853128;5.4;-0.3;28.9;.03;9.96;9.98;89;12;519.1;16;-0.7;D;2730;0;13.468;0.5;0.5;140;41.60237;120.33821;23.02896;0;0;1;N;90;90;15;162;162;41.59093;0;23.16;453;0.22;1.0;6.2;1.5;2.7;
23.0288710964731;120.33812262455;02:58:38.09;2/17/2011;9;0.5;32.84;-3.30880114687204;0.9;42.4;39.091198853128;5.6;0;28.9;.01;10.06;10.07;89;12;519.1;16;-0.7;D;2730;0;13.330;0.5;0.5;140;42.12899;120.33821;23.02896;0;0;1;N;90;90;15;159;159;42.11649;0;23.17;453;0.22;0.6;5.3;1.3;3.4;
23.0288727837219;120.338124323233;02:58:39.09;2/17/2011;9;0.5;31.99;-3.30880114687204;0.9;42.8;39.491198853128;5.6;-0.1;28.9;.03;10.05;10.08;89;12;519.1;16;-0.7;D;2730;0;13.074;0.5;0.5;140;42.11554;120.33821;23.02896;0;0;1;N;90;90;15;161;161;42.1045;0;23.17;453;0.22;0.5;6.7;1.6;2.8;
23.0288740555082;120.338125647579;02:58:40.09;2/17/2011;9;0.49;43.64;-3.30880114687204;0.9;43;39.691198853128;5.6;-0.6;28.9;.02;10.25;10.27;89;12;519.1;16;-0.7;D;2730;0;12.878;0.5;0.5;140;42.09021;120.33821;23.02896;0;0;1;N;90;90;15;157;157;42.09021;0;23.17;453;0.22;0.6;5.8;1.4;3.0;
23.0288757192107;120.338127321965;02:58:41.09;2/17/2011;9;0.46;48.66;-3.30880114687204;0.9;43.5;40.191198853128;5.6;-0.3;28.9;.03;10.35;10.38;89;12;519.1;16;-0.7;D;2730;0;12.626;0.5;0.5;140;42.0759;120.33821;23.02896;0;0;1;N;90;90;15;151;151;42.0759;0;23.17;453;0.22;0.6;5.8;1.4;3.0;
23.0288777399246;120.338129317579;02:58:42.09;2/17/2011;9;0.48;42.32;-3.30880114687204;0.9;43.7;40.391198853128;5.4;-0.7;28.9;.02;10.35;10.37;89;12;519.1;16;-0.7;D;2730;0;12.322;0.5;0.5;140;42.0712;120.33821;23.02896;0;0;1;N;90;90;15;148;148;42.0712;0;23.17;453;0.22;0.2;7.6;1.8;3.1;
23.0288794306118;120.338131015805;02:58:43.09;2/17/2011;9;0.45;47.74;-3.30880114687204;0.9;43.9;40.591198853128;5.5;-0.2;28.9;.02;10.35;10.37;89;12;519.1;16;-0.7;D;2729.9;0;12.067;0.5;0.5;140;42.05678;120.33821;23.02896;0;0;1;N;90;90;15;145;145;42.05678;0;23.17;453;0.22;0.6;9.8;2.3;2.9;
23.0288810611529;120.33813266651;02:58:44.09;2/17/2011;9;0.46;47.43;-3.30880114687204;0.9;44.4;41.091198853128;5.5;-0.5;28.9;.02;10.35;10.37;89;12;519.1;16;-0.7;D;2729.9;0;11.818;0.5;0.5;140;42.03754;120.33821;23.02896;0;0;1;N;90;90;15;139;139;42.03754;0;23.16;453;0.22;0.1;7.6;1.8;3.1;
23.0288827262028;120.338134335176;02:58:45.09;2/17/2011;9;0.45;41.19;-3.30880114687204;0.9;44.5;41.191198853128;5.5;-0.7;28.9;.01;10.35;10.36;89;12;519.1;16;-0.7;D;2729.9;0;11.567;0.5;0.5;140;42.02343;120.33821;23.02896;0;0;1;N;90;90;15;137;137;42.02343;0;23.15;453;0.22;0.3;9.2;2.2;2.5;
23.028884773878;120.338134695438;02:58:46.09;2/17/2011;9;0.5;42;-3.30880114687204;0.9;44.6;41.291198853128;5.6;-0.5;28.9;.01;10.45;10.46;89;12;519.1;16;-0.7;D;2729.9;0;11.374;0.5;0.5;140;42.65334;120.33821;23.02896;0;0;1;N;90;90;15;145;145;42.64536;0;23.15;453;0.22;-0.1;3.2;0.8;3.5;
23.0288860839847;120.338136032201;02:58:47.09;2/17/2011;9;0.51;38.04;-3.30880114687204;0.9;44.7;41.391198853128;5.6;-0.4;28.9;.02;10.55;10.57;89;12;519.1;16;-0.7;D;2719.5;0;11.174;0.5;0.5;140;42.64358;120.33821;23.02896;0;0;1;N;90;90;15;143;143;42.63702;0;23.15;453;0.22;-0.1;3.2;0.8;3.5;
23.0288873648652;120.338137344488;02:58:48.09;2/17/2011;9;0.52;38.07;-3.30880114687204;0.9;45.5;42.191198853128;5.5;-0.2;28.8;.01;10.55;10.57;89;12;519.1;16;-0.7;D;2719.5;0;10.978;0.5;0.5;140;42.63159;120.33821;23.02896;0;0;1;N;90;90;15;133;133;42.63159;0;23.15;453;0.22;0.6;1.7;0.4;3.5;
23.0288906938556;120.338139020058;02:58:49.09;2/17/2011;9;0.52;34.29;-3.30880114687204;0.9;46;42.691198853128;5.5;-0.7;28.9;.01;10.65;10.66;89;12;519.1;16;-0.7;D;2719.5;0;10.590;0.5;0.5;140;43.30549;120.33821;23.02896;0;0;1;N;90;90;15;135;135;43.30549;0;23.16;454;0.22;-0.1;6.8;1.6;4.2;
23.028892727561;120.33814105996;02:58:50.09;2/17/2011;9;0.5;38.88;-3.30880114687204;0.9;46.2;42.891198853128;5.4;-0.7;28.9;.01;10.75;10.76;89;12;519.1;16;-0.7;D;2719.5;0;10.282;0.5;0.5;140;43.3233;120.33821;23.02896;0;0;1;N;90;90;15;132;132;43.3233;0;23.17;454;0.22;0.0;3.8;0.9;3.0;
23.02889438821;120.338142733995;02:58:51.09;2/17/2011;9;0.53;43.65;-3.30880114687204;0.9;46.5;43.191198853128;5.4;-0.8;28.9;.01;10.75;10.76;89;12;519.1;16;-0.7;D;2719.5;0;10.031;0.5;0.5;140;43.33511;120.33821;23.02896;0;0;1;N;90;90;15;129;129;43.33511;0;23.18;453;0.22;0.2;8.7;2.1;3.9;
23.0288960208992;120.338144380945;02:58:52.09;2/17/2011;9;0.49;41.72;-3.30880114687204;0.9;47.1;43.791198853128;5.5;-0.1;28.9;.01;10.85;10.86;89;12;519.1;16;-0.7;D;2719.5;0;9.783;0.5;0.5;140;43.34684;120.33821;23.02896;0;0;1;N;90;90;15;121;121;43.34833;0;23.20;453;0.22;-0.1;5.8;1.4;3.3;
23.0288976871202;120.338146048375;02:58:53.09;2/17/2011;9;0.48;50.42;-3.30880114687204;0.9;46.8;43.491198853128;5.4;-0.4;28.9;.01;10.75;10.76;89;12;519.1;16;-0.7;D;2719.5;0;9.531;0.5;0.5;140;43.36541;120.33821;23.02896;0;0;1;N;90;90;15;125;125;43.3652;0;23.20;453;0.22;-0.1;5.8;1.4;3.3;
23.0288997213021;120.338148091831;02:58:54.09;2/17/2011;9;0.44;51.97;-3.30880114687204;0.9;46.7;43.391198853128;5.4;-0.7;28.9;.02;10.95;10.97;89;12;519.1;16;-0.7;D;2719.5;0;9.223;0.5;0.5;140;43.38585;120.33821;23.02896;0;0;1;N;90;90;15;127;127;43.38496;0;23.20;454;0.22;0.1;8.1;1.9;2.9;
23.0289010192115;120.338149382875;02:58:55.09;2/17/2011;9;0.47;53.37;-3.30880114687204;0.9;47;43.691198853128;5.5;-0.6;28.8;.01;10.95;10.96;89;12;519.1;16;-0.7;D;2719.5;0;9.027;0.5;0.5;140;43.40564;120.33821;23.02896;0;0;1;N;90;90;15;123;123;43.40635;0;23.21;454;0.22;1.0;8.8;2.1;2.9;
23.0289023500093;120.338150695525;02:58:56.09;2/17/2011;9;0.45;51.39;-3.30880114687204;0.9;46.5;43.191198853128;5.3;-0.5;28.8;.02;11.25;11.26;89;12;519.1;16;-0.7;D;2719.5;0;8.828;0.5;0.5;140;43.43222;120.33821;23.02896;0;0;1;N;89;89;15;130;130;43.43222;0;23.21;454;0.22;1.0;8.8;2.1;2.9;
23.0289043868324;120.338152735205;02:58:57.09;2/17/2011;9;0.45;49.54;-3.30880114687204;0.9;46.3;42.991198853128;5.4;-0.7;28.8;.01;11.25;11.26;89;12;519.1;16;-0.7;D;2719.5;0;8.520;0.5;0.5;140;43.46001;120.33821;23.02896;0;0;1;N;90;90;15;130;130;43.46001;0;23.21;453;0.22;-0.7;7.0;1.7;4.8;
23.0289060294401;120.338152704733;02:58:58.09;2/17/2011;9;0.51;45.49;-3.30880114687204;0.9;46.4;43.091198853128;5.4;-0.2;28.8;.01;11.35;11.36;89;12;519.1;16;-0.7;D;2712.5;0;8.390;0.5;0.5;140;44.33347;120.33821;23.02896;0;0;1;N;90;90;15;143;143;44.33347;0;23.20;453;0.22;-0.2;7.3;1.7;3.5;
23.0289076956049;120.338154372104;02:58:59.09;2/17/2011;9;0.53;38.8;-3.30880114687204;0.9;46.5;43.191198853128;5.4;-0.2;28.8;.02;10.65;10.67;89;12;519.1;16;-0.7;D;2712.5;0;8.139;0.5;0.5;140;44.38573;120.33821;23.02896;0;0;1;N;90;90;15;142;142;44.38573;0;23.20;453;0.22;-0.2;7.3;1.7;3.5;
23.0289093874926;120.338156067899;02:59:00.09;2/17/2011;9;0.53;37.24;-3.30880114687204;0.9;46.6;43.291198853128;5.4;-0.2;28.8;.02;10.55;10.57;89;12;519.1;16;-0.7;D;2712.5;0;7.883;0.5;0.5;140;44.44081;120.33821;23.02896;0;0;1;N;90;90;15;141;141;44.44081;0;23.20;454;0.22;0.1;5.0;1.2;3.6;
23.0289110529379;120.33815773585;02:59:01.09;2/17/2011;9;0.53;38.46;-3.30880114687204;0.9;46.5;43.191198853128;5.5;-0.4;28.8;.01;11.55;11.56;89;12;519.1;16;-0.7;D;2712.5;0;7.631;0.5;0.5;140;44.49936;120.33821;23.02896;0;0;1;N;90;90;15;143;143;44.48862;0;23.19;453;0.22;1.1;3.7;0.9;3.1;
23.0289146941301;120.33815973421;02:59:02.09;2/17/2011;9;0.54;37.14;-3.30880114687204;0.9;47.2;43.891198853128;5.5;0.8;28.8;.01;11.55;11.56;89;12;519.1;16;-0.7;D;2712.4;1;19.335;0.5;0.5;140;182.6496;120.338151;23.028741;0;0;1;N;90;90;15;250;250;182.5481;0;23.19;453;0.22;1.1;3.7;0.9;3.1;
23.0289160203324;120.338161105051;02:59:03.11;2/17/2011;9;0.53;40.36;-3.30880114687204;0.9;48.8;45.491198853128;5.6;0;28.8;.01;11.64;11.66;89;12;519.1;16;-0.7;D;2712.4;1;19.489;0.5;0.5;140;183.0416;120.338151;23.028741;0;0;1;N;90;90;15;250;250;182.9303;0;23.18;453;0.22;-0.5;5.2;1.2;3.0;
23.028919841524;120.338165174566;02:59:04.94;2/17/2011;9;0.43;43.62;-3.30880114687204;0.9;51.8;48.491198853128;5.9;0;28.9;.02;11.74;11.76;89;12;519.0;16;-0.8;D;2672.2;1;19.939;0.5;0.5;140;184.1719;120.338151;23.028741;0;0;1;N;92;92;15;250;250;184.1719;0;23.18;453;0.22;0.5;3.7;0.9;3.9;
23.0289209076997;120.338164494847;02:59:05.94;2/17/2011;9;0.43;44.28;-3.30880114687204;0.9;53.4;50.091198853128;5.9;0;28.8;.02;11.94;11.96;89;12;519.0;16;-0.8;D;2672.2;1;20.053;0.5;0.5;140;183.949;120.338151;23.028741;0;0;1;N;92;92;15;250;250;183.842;0;23.18;453;0.22;0.4;5.6;1.3;3.1;
23.0289222481773;120.338165798134;02:59:06.94;2/17/2011;9;0.41;44.89;-3.30880114687204;0.9;55.6;52.291198853128;6;0.3;28.8;.03;12.23;12.26;89;12;519.0;16;-0.8;D;2672.2;1;20.211;0.5;0.5;140;184.2971;120.338151;23.028741;0;0;1;N;92;92;15;250;250;184.2971;0;23.18;453;0.22;0.0;7.7;1.8;3.3;
23.0289238912408;120.338165814346;02:59:07.94;2/17/2011;9;0.4;50.6;-3.30880114687204;0.9;57.1;53.791198853128;6.1;-0.3;28.8;.01;12.23;12.24;89;12;519.0;16;-0.8;D;2672.2;1;20.393;0.5;0.5;140;184.2633;120.338151;23.028741;0;0;1;N;92;92;15;250;250;184.2633;0;23.18;453;0.22;0.6;7.8;1.8;3.2;
23.0289238906078;120.338167531019;02:59:08.97;2/17/2011;9;0.4;55.09;-3.30880114687204;0.9;58.9;55.591198853128;5.9;-0.2;28.8;.03;12.23;12.26;89;12;519.0;16;-0.8;D;2672.1;1;20.407;0.5;0.5;140;184.7552;120.338151;23.028741;0;0;1;N;92;92;15;250;250;184.7552;0;23.18;453;0.22;0.2;3.9;0.9;3.1;
23.0289255103077;120.338167517009;02:59:09.97;2/17/2011;9;0.44;48.27;-3.30880114687204;0.9;60.8;57.491198853128;5.9;-0.2;28.8;.03;12.33;12.36;89;12;519.0;16;-0.8;D;2672.1;1;20.586;0.5;0.5;140;184.7096;120.338151;23.028741;0;0;1;N;92;92;15;250;250;184.7096;0;23.19;453;0.22;0.2;5.4;1.3;3.0;
23.0289271527021;120.338169200118;02:59:10.97;2/17/2011;9;0.48;43.25;-3.30880114687204;0.9;62.5;59.191198853128;5.9;0;28.8;.02;12.43;12.46;89;12;519.0;16;-0.8;D;2672.1;1;20.783;0.5;0.5;140;185.1415;120.338151;23.028741;0;0;1;N;92;92;15;250;250;185.1415;0;23.19;453;0.22;0.4;6.8;1.6;3.1;
23.0289288082258;120.33817091997;02:59:11.97;2/17/2011;9;0.5;49.66;-3.30880114687204;0.9;64.4;61.091198853128;5.9;-0.3;28.8;.01;12.53;12.54;89;12;519.0;16;-0.8;D;2672.1;1;20.983;0.5;0.5;140;185.5751;120.338151;23.028741;0;0;1;N;92;92;15;250;250;185.4491;0;23.20;453;0.22;-0.4;4.9;1.1;3.6;
23.0289304317959;120.338170899677;02:59:12.97;2/17/2011;9;0.47;47.82;-3.30880114687204;0.9;66.5;63.191198853128;5.9;-0.3;28.8;.02;12.63;12.66;89;12;519.0;16;-0.8;D;2672;1;21.162;0.5;0.5;140;185.5221;120.338151;23.028741;0;0;1;N;92;92;15;250;250;185.5221;0;23.21;453;0.22;-0.1;6.0;1.4;2.5;
23.0289320686316;120.338172585089;02:59:13.97;2/17/2011;9;0.5;51.19;-3.30880114687204;0.9;68.6;65.291198853128;5.8;0;28.8;.02;12.93;12.95;89;12;519.0;16;-0.8;D;2672;1;21.361;0.5;0.5;140;185.9356;120.338151;23.028741;0;0;1;N;91;91;15;250;250;185.9356;0;23.21;453;0.22;0.1;6.2;1.5;3.7;
23.0289338863254;120.338174731228;02:59:14.97;2/17/2011;9;0.49;51.97;-3.30880114687204;0.9;70.7;67.391198853128;5.8;-0.1;28.8;.01;13.13;13.14;89;12;519.0;16;-0.8;D;2672;1;21.585;0.5;0.5;140;186.4599;120.338151;23.028741;0;0;1;N;91;91;15;250;250;186.3395;0;23.21;453;0.22;0.5;7.4;1.8;2.6;
23.0289353517662;120.338175982616;02:59:15.97;2/17/2011;9;0.43;61.41;-3.30880114687204;0.9;72.8;69.491198853128;5.8;0;28.9;.02;13.23;13.25;89;12;519.0;16;-0.8;D;2672;1;21.762;0.5;0.5;140;186.7467;120.338151;23.028741;0;0;1;N;91;91;15;250;250;186.7467;0;23.21;453;0.22;0.4;5.4;1.3;3.3;
23.0289353063826;120.33817762755;02:59:16.97;2/17/2011;9;0.43;66.95;-3.30880114687204;0.9;74.9;71.591198853128;5.7;-0.3;28.9;.02;13.33;13.35;89;12;519.0;16;-0.8;D;2681.9;1;21.777;0.5;0.5;140;187.1881;120.338151;23.028741;0;0;1;N;91;91;15;250;250;187.1881;0;23.22;453;0.22;0.2;7.7;1.8;3.2;
23.0289369364209;120.338179304245;02:59:17.97;2/17/2011;9;0.43;72.64;-3.30880114687204;0.9;77.2;73.891198853128;5.7;-0.3;28.9;.01;13.53;13.54;89;12;519.0;16;-0.8;D;2681.9;1;21.979;0.5;0.5;140;187.5727;120.338151;23.028741;0;0;1;N;91;91;15;250;250;187.5727;0;23.21;453;0.22;-0.3;8.7;2.1;3.4;
23.0289369040826;120.338179313964;02:59:19.00;2/17/2011;9;0.41;73.84;-3.30880114687204;0.9;79.1;75.791198853128;5.9;-0.3;28.9;.02;13.73;13.75;89;12;519.0;16;-0.8;D;2681.9;1;21.976;0.5;0.5;140;187.5766;120.338151;23.028741;0;0;1;N;92;92;15;250;250;187.5766;0;23.21;453;0.22;0.1;2.8;0.7;2.8;
23.0289369884647;120.338181521244;02:59:20.00;2/17/2011;9;0.39;81.19;-3.30880114687204;0.9;81;77.691198853128;5.9;0;28.9;.01;13.63;13.64;89;12;519.0;16;-0.8;D;2688.5;1;22.016;0.5;0.5;140;188.1561;120.338151;23.028741;0;0;1;N;92;92;15;250;250;188.1561;0;23.20;453;0.22;0.3;6.3;1.5;2.8;
23.0289385019965;120.338182663587;02:59:21.01;2/17/2011;9;0.4;79.87;-3.30880114687204;0.9;83.6;80.291198853128;5.9;0;28.9;.01;14.22;14.24;89;12;519.0;16;-0.8;D;2688.5;1;22.199;0.5;0.5;140;188.3931;120.338151;23.028741;0;0;1;N;92;92;15;250;250;188.3931;0;23.19;453;0.22;-0.1;6.7;1.6;2.5;
23.0289384635704;120.338184339846;02:59:22.03;2/17/2011;9;0.51;67.48;-3.30880114687204;0.9;85.5;82.191198853128;5.9;-0.2;28.9;.01;14.03;14.04;89;12;519.0;16;-0.8;D;2688.5;1;22.221;0.5;0.5;140;188.8323;120.338151;23.028741;0;0;1;N;91;91;15;250;250;188.8323;0;23.18;453;0.22;0.7;6.0;1.4;3.6;
23.0289401533801;120.338186551349;02:59:23.05;2/17/2011;9;0.54;64.01;-3.30880114687204;0.9;87.7;84.391198853128;5.8;0;28.9;.01;14.52;14.53;89;12;519.0;16;-0.8;D;2688.5;1;22.442;0.5;0.5;140;189.3296;120.338151;23.028741;0;0;1;N;91;91;15;250;250;189.1921;0;23.16;453;0.22;-0.6;3.7;0.9;2.7;
23.0289417625785;120.338189849936;02:59:24.05;2/17/2011;9;0.51;69.36;-3.30880114687204;0.9;90.2;86.891198853128;5.9;-0.2;28.9;.02;14.72;14.74;89;12;519.0;16;-0.8;D;2688.4;1;22.675;0.5;0.5;140;190.098;120.338151;23.028741;0;0;1;N;92;92;15;250;250;190.098;0;23.14;452;0.22;0.2;4.4;1.0;4.0;
23.0289417136127;120.338191522063;02:59:25.06;2/17/2011;9;0.49;71.25;-3.30880114687204;0.9;92.2;88.891198853128;5.8;0;28.9;.02;14.82;14.85;89;12;519.0;16;-0.8;D;2688.4;1;22.701;0.5;0.5;140;190.5256;120.338151;23.028741;0;0;1;N;91;91;15;250;250;190.3975;0;23.11;452;0.22;0.4;7.6;1.8;4.0;
23.0289433254328;120.338193227;02:59:26.06;2/17/2011;9;0.49;73.54;-3.30880114687204;0.9;94.1;90.791198853128;5.8;0;28.9;.01;15.02;15.04;89;12;519.0;16;-0.8;D;2688.4;1;22.909;0.5;0.5;140;190.8727;120.338151;23.028741;0;0;1;N;91;91;15;250;250;190.745;0;23.08;453;0.22;0.6;8.7;2.1;2.8;
23.0289449608865;120.338196052721;02:59:27.06;2/17/2011;9;0.51;73.58;-3.30880114687204;0.9;96.1;92.791198853128;5.8;0;28.9;.00;15.12;15.13;89;12;519.0;16;-0.8;D;2688.4;1;23.144;0.5;0.5;140;191.4909;120.338151;23.028741;0;0;1;N;91;91;15;250;250;191.4909;0;23.07;453;0.22;0.5;8.4;2.0;3.2;
23.0289449281683;120.338197677314;02:59:28.06;2/17/2011;9;0.43;90.09;-3.30880114687204;0.9;98.2;94.891198853128;5.8;0;28.8;.01;15.42;15.43;89;12;519.0;16;-0.8;D;2688.4;1;23.173;0.5;0.5;140;191.8955;120.338151;23.028741;0;0;1;N;91;91;15;250;250;191.8955;0;23.05;452;0.22;0.6;3.9;0.9;2.8;
23.0289448923135;120.338199340249;02:59:29.06;2/17/2011;9;0.49;99.75;-3.30880114687204;0.9;100.5;97.191198853128;5.8;0;28.8;.02;15.42;15.44;89;12;519.0;16;-0.8;D;2688.4;1;23.205;0.5;0.5;140;192.3087;120.338151;23.028741;0;0;1;N;91;91;15;250;250;192.3087;0;23.04;453;0.22;0.9;7.9;1.9;3.0;
23.0289431212798;120.338203210102;02:59:30.06;2/17/2011;9;0.41;106.35;-3.30880114687204;0.9;102.5;99.191198853128;5.8;-0.2;28.8;.02;15.62;15.63;89;12;519.0;16;-0.8;D;2688.4;1;23.101;0.5;0.5;140;193.3725;120.338151;23.028741;0;0;1;N;91;91;15;250;250;193.3725;0;23.02;453;0.22;0.2;5.8;1.4;3.7;
23.0289433333333;120.338205;02:59:31.06;2/17/2011;9;0.43;107.66;-3.30880114687204;0.9;104.4;101.091198853128;5.8;0;28.8;.02;15.82;15.84;89;12;519.0;16;-0.8;D;2688.4;1;23.095;0.5;0.5;140;193.3633;120.338151;23.028741;0;0;1;N;91;91;15;250;250;193.3633;0;23.00;452;0.22;0.3;7.2;1.7;3.0;
23.0289428351864;120.338207478735;02:59:32.06;2/17/2011;9;0.43;107.66;-3.30880114687204;0.9;106.1;102.791198853128;5.8;0;28.8;.00;15.82;15.82;89;12;519.0;16;-0.8;D;2688.4;1;23.175;0.5;0.5;140;194.4414;120.338151;23.028741;0;0;1;N;91;91;15;250;250;194.4414;0;22.98;452;0.22;0.4;11.3;2.7;3.2;
23.0289412979608;120.338208175335;02:59:33.06;2/17/2011;9;0.47;100.85;-3.30880114687204;0.9;108.7;105.391198853128;5.8;0;28.8;.01;15.82;15.83;89;12;519.0;16;-0.8;D;2688.4;1;23.028;0.5;0.5;140;194.7192;120.338151;23.028741;0;0;1;N;91;91;15;250;250;194.7192;0;22.97;452;0.22;-0.6;6.1;1.5;2.9;
23.0289411200221;120.338211983385;02:59:34.06;2/17/2011;9;0.44;103.33;-3.30880114687204;0.9;110.6;107.291198853128;5.8;-0.1;28.9;.00;15.82;15.82;89;12;519.0;16;-0.8;D;2688.4;1;23.111;0.5;0.5;140;195.6661;120.338151;23.028741;0;0;1;N;91;91;15;250;250;195.5369;0;22.95;452;0.22;0.1;7.0;1.7;2.7;
23.028941216468;120.33821310718;02:59:35.06;2/17/2011;9;0.47;97.95;-3.30880114687204;0.9;112.4;109.091198853128;5.8;-0.3;28.9;.02;16.02;16.03;89;12;518.9;16;-0.8;D;2681.6;1;23.153;0.5;0.5;140;195.933;120.338151;23.028741;0;0;1;N;91;91;15;250;250;195.8048;0;22.93;453;0.22;0.7;5.8;1.4;3.2;
23.0289411570406;120.338216459671;02:59:36.09;2/17/2011;9;0.48;92.7;-3.30880114687204;0.9;114.4;111.091198853128;5.9;0.1;28.9;.01;16.01;16.02;89;12;518.9;16;-0.8;D;2681.6;1;23.243;0.5;0.5;140;196.7507;120.338151;23.028741;0;0;1;N;92;92;15;250;250;196.6138;0;22.91;452;0.22;0.8;4.3;1.0;3.1;
23.0289412961383;120.338217641014;02:59:37.09;2/17/2011;9;0.42;105.22;-3.30880114687204;0.9;116.1;112.791198853128;5.9;-0.1;28.9;.03;15.42;15.45;89;12;518.9;16;-0.8;D;2681.6;1;23.293;0.5;0.5;140;197.0245;120.338151;23.028741;0;0;1;N;92;92;15;250;250;197.0245;0;22.89;452;0.22;0.3;3.8;0.9;2.8;
23.0289410891781;120.338219722263;02:59:38.09;2/17/2011;9;0.45;100.53;-3.30880114687204;0.9;118;114.691198853128;5.9;-0.1;28.9;.02;15.52;15.53;89;12;518.9;16;-0.8;D;2681.6;1;23.334;0.5;0.5;140;197.5411;120.338151;23.028741;0;0;1;N;92;92;15;250;250;197.5411;0;22.84;452;0.22;0.5;5.1;1.2;3.5;
23.0289410478335;120.338223031989;02:59:39.09;2/17/2011;9;0.44;104.18;-3.30880114687204;0.9;119.8;116.491198853128;6;-0.1;28.8;.03;14.82;14.85;89;12;518.9;16;-0.8;D;2671.5;1;23.434;0.5;0.5;140;198.3341;120.338151;23.028741;0;0;1;N;92;92;15;250;250;198.3341;0;22.84;452;0.22;0.5;5.1;1.2;3.5;
23.0289397608875;120.338225481986;02:59:40.09;2/17/2011;9;0.48;121.83;-3.30880114687204;0.9;121.5;118.191198853128;5.7;-0.1;28.9;.02;14.33;14.35;89;12;518.9;16;-0.8;D;2671.5;1;23.379;0.5;0.5;140;199.0277;120.338151;23.028741;0;0;1;N;90;90;15;250;250;198.7478;0;22.82;453;0.22;0.6;10.0;2.4;3.0;
23.0289385921697;120.33822772541;02:59:41.09;2/17/2011;9;0.48;121.83;-3.30880114687204;0.9;123.3;119.991198853128;5.8;0;28.9;.02;17.12;17.14;89;12;518.9;16;-0.8;D;2671.5;1;23.332;0.5;0.5;140;199.6647;120.338151;23.028741;0;0;1;N;91;91;15;250;250;199.5394;0;22.79;452;0.22;0.7;8.1;1.9;3.3;
23.0289364176233;120.338230432432;02:59:42.09;2/17/2011;9;0.49;122.97;-3.30880114687204;0.9;125.5;122.191198853128;5.8;0;28.8;.01;17.11;17.13;89;12;518.9;16;-0.8;D;2671.5;1;23.200;0.5;0.5;140;200.51;120.338151;23.028741;0;0;1;N;91;91;15;250;250;200.51;0;22.79;452;0.22;0.7;8.1;1.9;3.3;
23.0289351357517;120.338232554442;02:59:43.09;2/17/2011;9;0.49;122.97;-3.30880114687204;0.9;127.2;123.891198853128;5.8;-0.1;28.8;.01;17.11;17.12;89;12;518.9;16;-0.8;D;2671.5;1;23.144;0.5;0.5;140;201.1371;120.338151;23.028741;0;0;1;N;91;91;15;250;250;201.0118;0;22.77;452;0.22;0.2;6.0;1.4;3.3;
23.0289344371469;120.338232526996;02:59:44.09;2/17/2011;9;0.48;127.5;-3.30880114687204;0.9;129.1;125.791198853128;5.8;-0.1;28.8;.02;17.51;17.53;89;12;518.9;16;-0.8;D;2671.5;1;23.071;0.5;0.5;140;201.2002;120.338151;23.028741;0;0;1;N;91;91;15;250;250;201.2002;0;22.74;452;0.22;0.1;8.0;1.9;2.8;
